{
  "type": "FeatureCollection",
  "name": "yucatan_locations",
  "features": [
    {
      "type": "Feature",
      "properties": {
        "name": "Mérida",
        "country": "Mexico",
        "description": "Capital of Yucatan state"
      },
      "geometry": {
        "type": "Point",
        "coordinates": [-89.5926, 20.9674]
      }
    },
    {
      "type": "Feature",
      "properties": {
        "name": "Chichén Itzá",
        "country": "Mexico",
        "description": "Ancient Mayan city and pyramid"
      },
      "geometry": {
        "type": "Point",
        "coordinates": [-88.5678, 20.6843]
      }
    },
    {
      "type": "Feature",
      "properties": {
        "name": "Palenque",
        "country": "Mexico",
        "description": "Mayan archaeological site"
      },
      "geometry": {
        "type": "Point",
        "coordinates": [-91.9823, 17.5095]
      }
    },
    {
      "type": "Feature",
      "properties": {
        "name": "San Cristóbal de las Casas",
        "country": "Mexico",
        "description": "Colonial city in Chiapas"
      },
      "geometry": {
        "type": "Point",
        "coordinates": [-92.6376, 16.7370]
      }
    },
    {
      "type": "Feature",
      "properties": {
        "name": "Bacalar",
        "country": "Mexico",
        "description": "Lagoon of seven colors"
      },
      "geometry": {
        "type": "Point",
        "coordinates": [-88.3933, 18.6784]
      }
    },
    {
      "type": "Feature",
      "properties": {
        "name": "Playa del Carmen",
        "country": "Mexico",
        "description": "Caribbean beach resort"
      },
      "geometry": {
        "type": "Point",
        "coordinates": [-87.0739, 20.6296]
      }
    },
    {
      "type": "Feature",
      "properties": {
        "name": "Cancún",
        "country": "Mexico",
        "description": "Tourist resort city"
      },
      "geometry": {
        "type": "Point",
        "coordinates": [-86.8515, 21.1619]
      }
    },
    {
      "type": "Feature",
      "properties": {
        "name": "Panajachel",
        "country": "Guatemala",
        "description": "Town on Lake Atitlán"
      },
      "geometry": {
        "type": "Point",
        "coordinates": [-91.1566, 14.7372]
      }
    },
    {
      "type": "Feature",
      "properties": {
        "name": "Antigua Guatemala",
        "country": "Guatemala",
        "description": "UNESCO World Heritage colonial city"
      },
      "geometry": {
        "type": "Point",
        "coordinates": [-90.7295, 14.5586]
      }
    },
    {
      "type": "Feature",
      "properties": {
        "name": "Chichicastenango",
        "country": "Guatemala",
        "description": "Famous indigenous market"
      },
      "geometry": {
        "type": "Point",
        "coordinates": [-91.1113, 14.9433]
      }
    },
    {
      "type": "Feature",
      "properties": {
        "name": "Guatemala Airport",
        "country": "Guatemala",
        "description": "La Aurora International Airport"
      },
      "geometry": {
        "type": "Point",
        "coordinates": [-90.5275, 14.5833]
      }
    },
    {
      "type": "Feature",
      "properties": {
        "name": "Flores",
        "country": "Guatemala",
        "description": "Island town, gateway to Tikal"
      },
      "geometry": {
        "type": "Point",
        "coordinates": [-89.8908, 16.9297]
      }
    },
    {
      "type": "Feature",
      "properties": {
        "name": "Tikal",
        "country": "Guatemala",
        "description": "Ancient Mayan ruins"
      },
      "geometry": {
        "type": "Point",
        "coordinates": [-89.6237, 17.2220]
      }
    },
    {
      "type": "Feature",
      "properties": {
        "name": "Belize City",
        "country": "Belize",
        "description": "Largest city in Belize"
      },
      "geometry": {
        "type": "Point",
        "coordinates": [-88.1962, 17.5046]
      }
    },
    {
      "type": "Feature",
      "properties": {
        "name": "Caye Caulker",
        "country": "Belize",
        "description": "Caribbean island paradise"
      },
      "geometry": {
        "type": "Point",
        "coordinates": [-88.0242, 17.7425]
      }
    }
  ]
}
